,City,State,Country,Population,Latitude,Longitude,Housing,Cost of Living,Travel Connectivity,Commute,Education
0,Newark,NJ,US,281944,40.73566,-74.17237,1.0,2.342,6.675,5.5192499999999995,8.0935
1,New York City,NY,US,8175133,40.71427,-74.00597,1.0,2.342,6.675,5.5192499999999995,8.0935
2,Chicago,IL,US,2720546,41.85003,-87.65005,3.7020000000000004,4.766000000000001,5.5075,4.57975,7.999
3,Atlanta,GA,US,463878,33.749,-84.38798,4.9755,5.241,5.2915,3.8977500000000003,6.456999999999999
4,Washington,DC,US,601723,38.89511,-77.03637,1.2105000000000001,3.5949999999999993,4.505000000000001,4.457000000000001,5.968500000000001
